City_ID,City,Country,Date,Lat,Lng,Weather,Min Temp,Max Temp,Humidity,Cloudiness,Wind Speed,Rain,Snow
0,Parana,AR,2020-02-22 06:33:45,-31.73,-60.52,clear sky,62.01,63.0,68,0,4.0,0.0,0.0
1,Krasnosel'kup,RU,2020-02-22 06:33:45,65.7,82.47,light snow,6.21,6.21,94,99,13.4,0.0,0.0051181102362204715
2,Santarem,BR,2020-02-22 06:33:45,-2.44,-54.71,scattered clouds,75.2,75.2,100,40,4.7,0.0,0.0
3,Ulagan,RU,2020-02-22 06:33:45,50.63,87.96,overcast clouds,26.38,26.38,84,100,1.16,0.0,0.0
4,Ushuaia,AR,2020-02-22 06:33:45,-54.8,-68.3,scattered clouds,55.4,55.4,76,40,17.22,0.0,0.0
5,Jamestown,US,2020-02-22 06:33:45,42.1,-79.24,clear sky,23.0,30.2,53,1,16.11,0.0,0.0
6,Cape Town,ZA,2020-02-22 06:30:02,-33.93,18.42,broken clouds,66.99,68.0,77,75,9.17,0.0,0.0
7,Kaitangata,NZ,2020-02-22 06:33:46,-46.28,169.85,few clouds,55.99,55.99,52,16,10.0,0.0,0.0
8,Lake Cowichan,CA,2020-02-22 06:33:46,48.83,-124.05,overcast clouds,37.99,46.4,75,90,3.36,0.0,0.0
9,Bluff,NZ,2020-02-22 06:33:46,-46.6,168.33,few clouds,55.0,55.0,61,12,13.0,0.0,0.0
10,Thompson,CA,2020-02-22 06:30:28,55.74,-97.86,few clouds,23.0,23.0,79,20,3.36,0.0,0.0
11,Airai,TL,2020-02-22 06:33:46,-8.93,125.41,moderate rain,76.21,76.21,85,100,2.77,0.1893700787401575,0.0
12,Baharly,TM,2020-02-22 06:33:47,38.44,57.43,few clouds,52.3,52.3,63,20,13.89,0.0,0.0
13,Qaanaaq,GL,2020-02-22 06:33:47,77.48,-69.36,overcast clouds,-19.12,-19.12,55,90,4.76,0.0,0.0
14,Brae,GB,2020-02-22 06:33:47,60.4,-1.35,light snow,39.2,39.2,69,99,28.86,0.0,0.03188976377952756
15,La Sarre,CA,2020-02-22 06:33:47,48.8,-79.2,light snow,25.16,25.16,94,99,9.28,0.0,0.01220472440944882
16,Rikitea,PF,2020-02-22 06:33:47,-23.12,-134.97,light rain,78.22,78.22,74,16,8.32,0.0051181102362204715,0.0
17,Aykhal,RU,2020-02-22 06:33:05,66.0,111.5,overcast clouds,3.2,3.2,84,100,2.24,0.0,0.0
18,Hermanus,ZA,2020-02-22 06:33:48,-34.42,19.23,overcast clouds,66.99,71.01,79,94,7.0,0.0,0.0
19,New Norfolk,AU,2020-02-22 06:33:48,-42.78,147.06,few clouds,64.99,73.0,49,11,17.22,0.0,0.0
20,Tuatapere,NZ,2020-02-22 06:33:48,-46.13,167.68,few clouds,55.0,55.0,61,24,13.0,0.0,0.0
21,Beloha,MG,2020-02-22 06:33:48,-25.17,45.05,clear sky,87.49,87.49,50,4,8.5,0.0,0.0
22,Calatayud,ES,2020-02-22 06:33:48,41.35,-1.64,clear sky,28.0,39.2,86,0,4.7,0.0,0.0
23,Troy,US,2020-02-22 06:31:00,42.61,-83.15,clear sky,24.01,28.99,50,1,12.75,0.0,0.0
24,Anadyr,RU,2020-02-22 06:33:49,64.75,177.48,few clouds,-11.2,-11.0,76,17,2.24,0.0,0.0
25,Longyearbyen,SJ,2020-02-22 06:32:47,78.22,15.64,scattered clouds,3.2,3.2,71,40,20.8,0.0,0.0
26,Atuona,PF,2020-02-22 06:33:49,-9.8,-139.03,overcast clouds,81.72,81.72,78,98,15.82,0.0,0.0
27,Avarua,CK,2020-02-22 06:33:49,-21.21,-159.78,light rain,82.4,82.4,83,2,9.17,0.01220472440944882,0.0
28,Yima,CN,2020-02-22 06:33:49,34.74,111.88,clear sky,56.8,56.8,19,0,10.69,0.0,0.0
29,Kayerkan,RU,2020-02-22 06:33:49,69.35,87.76,broken clouds,10.4,10.4,85,61,4.47,0.0,0.0
30,Chui,UY,2020-02-22 06:33:50,-33.7,-53.46,scattered clouds,59.47,59.47,66,41,11.72,0.0,0.0
31,Hamilton,US,2020-02-22 06:33:50,39.18,-84.53,clear sky,21.2,28.99,73,1,4.7,0.0,0.0
32,Pisco,PE,2020-02-22 06:33:50,-13.7,-76.22,few clouds,70.0,73.4,83,20,6.93,0.0,0.0
33,Pangody,RU,2020-02-22 06:33:50,65.85,74.49,few clouds,3.74,3.74,90,15,10.56,0.0,0.0
34,Luderitz,,2020-02-22 06:33:50,-26.65,15.16,few clouds,68.0,68.0,72,14,23.04,0.0,0.0
35,Albany,US,2020-02-22 06:31:48,42.6,-73.97,clear sky,12.0,26.6,42,1,8.05,0.0,0.0
36,Port Elizabeth,ZA,2020-02-22 06:33:51,-33.92,25.57,few clouds,69.8,69.8,73,20,19.46,0.0,0.0
37,Constantine,DZ,2020-02-22 06:33:51,36.37,6.61,clear sky,33.8,33.8,85,0,2.24,0.0,0.0
38,Mahebourg,MU,2020-02-22 06:29:58,-20.41,57.7,few clouds,82.4,82.99,58,20,5.82,0.0,0.0
39,Fujin,CN,2020-02-22 06:33:52,47.26,132.03,light snow,16.56,16.56,80,100,7.54,0.0,0.00984251968503937
40,Saldanha,ZA,2020-02-22 06:33:52,-33.01,17.94,broken clouds,68.0,68.0,77,65,1.12,0.0,0.0
41,Valdosta,US,2020-02-22 06:31:33,30.83,-83.28,clear sky,33.01,37.99,69,1,4.7,0.0,0.0
42,Hong Kong,HK,2020-02-22 06:29:40,22.29,114.16,few clouds,66.99,82.0,53,20,8.05,0.0,0.0
43,Kenai,US,2020-02-22 06:33:52,60.55,-151.26,overcast clouds,21.0,21.99,79,90,9.17,0.0,0.0
44,College,US,2020-02-22 06:30:04,64.86,-147.8,broken clouds,6.8,17.6,78,75,0.72,0.0,0.0
45,Galle,LK,2020-02-22 06:33:53,6.04,80.22,broken clouds,81.82,81.82,77,52,11.21,0.0,0.0
46,Ketchikan,US,2020-02-22 06:33:53,55.34,-131.65,overcast clouds,33.8,35.6,91,90,5.82,0.0,0.0
47,Alyangula,AU,2020-02-22 06:33:53,-13.85,136.42,light intensity shower rain,82.4,82.4,83,90,9.17,0.0,0.0
48,Ponta do Sol,PT,2020-02-22 06:33:53,32.67,-17.1,scattered clouds,57.99,63.0,77,40,9.17,0.0,0.0
49,Mangrol,IN,2020-02-22 06:33:54,21.12,70.12,few clouds,79.88,79.88,42,13,5.17,0.0,0.0
50,Talnakh,RU,2020-02-22 06:33:54,69.49,88.4,broken clouds,10.4,10.4,85,76,4.47,0.0,0.0
51,Tuktoyaktuk,CA,2020-02-22 06:33:54,69.45,-133.04,overcast clouds,5.0,5.0,84,90,5.82,0.0,0.0
52,Tiksi,RU,2020-02-22 06:33:54,71.69,128.87,broken clouds,-9.06,-9.06,86,74,6.91,0.0,0.0
53,East London,ZA,2020-02-22 06:33:54,-33.02,27.91,overcast clouds,71.6,71.6,94,90,11.41,0.0,0.0
54,Pangnirtung,CA,2020-02-22 06:33:55,66.15,-65.71,broken clouds,-34.2,-34.2,97,72,0.69,0.0,0.0
55,Rancho Palos Verdes,US,2020-02-22 06:29:53,33.74,-118.39,overcast clouds,54.0,61.0,77,90,5.82,0.0,0.0
56,Bulnes,CL,2020-02-22 06:33:55,-36.74,-72.3,clear sky,55.4,57.2,87,0,4.7,0.0,0.0
57,Horqueta,PY,2020-02-22 06:33:55,-23.34,-57.06,scattered clouds,67.78,67.78,43,26,9.86,0.0,0.0
58,Ratnapura,LK,2020-02-22 06:33:55,6.68,80.4,broken clouds,91.26,91.26,44,71,3.49,0.0,0.0
59,Charters Towers,AU,2020-02-22 06:33:55,-20.1,146.27,overcast clouds,85.5,85.5,61,90,17.4,0.0,0.0
60,Portales,US,2020-02-22 06:33:56,34.19,-103.33,few clouds,35.01,37.0,80,20,10.29,0.0,0.0
61,Ribeira Grande,PT,2020-02-22 06:33:56,38.52,-28.7,overcast clouds,56.73,56.73,83,88,5.59,0.0,0.0
62,Port Alfred,ZA,2020-02-22 06:33:56,-33.59,26.89,light rain,69.01,69.01,89,96,5.01,0.007480314960629922,0.0
63,Pevek,RU,2020-02-22 06:33:56,69.7,170.31,light snow,-9.08,-9.08,98,100,13.04,0.0,0.00984251968503937
64,Wahiawa,US,2020-02-22 06:33:56,21.5,-158.02,broken clouds,69.01,75.2,73,75,4.7,0.0,0.0
65,Banda Aceh,ID,2020-02-22 06:33:19,5.56,95.32,light rain,87.76,87.76,53,40,12.17,0.0051181102362204715,0.0
66,Kiryat Gat,IL,2020-02-22 06:33:57,31.61,34.76,scattered clouds,46.0,53.6,87,40,12.75,0.0,0.0
67,Geraldton,AU,2020-02-22 06:30:49,-28.77,114.6,broken clouds,82.4,82.4,61,75,24.16,0.0,0.0
68,Saint-Philippe,RE,2020-02-22 06:30:42,-21.36,55.77,few clouds,71.01,84.2,58,24,17.22,0.0,0.0
69,Del Rio,US,2020-02-22 06:33:57,29.36,-100.9,clear sky,46.4,50.0,46,1,8.05,0.0,0.0
70,San Luis,AR,2020-02-22 06:33:57,-33.3,-66.34,broken clouds,61.57,61.57,41,75,5.77,0.0,0.0
71,Kapaa,US,2020-02-22 06:33:57,22.08,-159.32,overcast clouds,71.6,73.4,78,90,13.87,0.0,0.0
72,Chokurdakh,RU,2020-02-22 06:29:42,70.63,147.92,broken clouds,-21.1,-21.1,97,55,1.23,0.0,0.0
73,Mataura,NZ,2020-02-22 06:33:58,-46.19,168.86,broken clouds,55.0,55.0,61,60,13.0,0.0,0.0
74,Ormara,PK,2020-02-22 06:33:58,25.21,64.64,clear sky,74.53,74.53,54,1,8.1,0.0,0.0
75,Troitskoye,RU,2020-02-22 06:33:58,52.98,84.68,overcast clouds,25.45,25.45,90,100,3.2,0.0,0.0
76,Kodiak,US,2020-02-22 06:33:58,57.79,-152.41,few clouds,19.4,19.4,48,20,38.21,0.0,0.0
77,Miles City,US,2020-02-22 06:31:01,46.41,-105.84,clear sky,32.0,33.01,55,1,8.05,0.0,0.0
78,Kahului,US,2020-02-22 06:31:35,20.89,-156.47,clear sky,66.0,73.4,64,1,13.87,0.0,0.0
79,Puerto Ayora,EC,2020-02-22 06:33:59,-0.74,-90.35,light rain,78.13,78.13,86,47,3.74,0.007480314960629922,0.0
80,Hithadhoo,MV,2020-02-22 06:33:59,-0.6,73.08,light rain,81.41,81.41,78,98,9.04,0.02716535433070866,0.0
81,Mar del Plata,AR,2020-02-22 06:29:30,-38.0,-57.56,broken clouds,51.8,57.0,81,75,4.7,0.0,0.0
82,Clyde River,CA,2020-02-22 06:33:59,70.47,-68.59,clear sky,-25.6,-25.6,82,1,4.7,0.0,0.0
83,Coahuayana Viejo,MX,2020-02-22 06:33:59,18.73,-103.68,clear sky,72.57,72.57,73,4,2.44,0.0,0.0
84,Tikrit,IQ,2020-02-22 06:34:00,34.61,43.68,broken clouds,60.28,60.28,48,80,13.15,0.0,0.0
85,Marathon,US,2020-02-22 06:34:00,44.9,-89.77,clear sky,21.0,26.6,92,1,8.99,0.0,0.0
86,Kununurra,AU,2020-02-22 06:34:00,-15.77,128.73,broken clouds,102.2,102.2,29,60,4.7,0.0,0.0
87,Barrow,US,2020-02-22 06:34:00,71.29,-156.79,overcast clouds,-9.4,-9.4,76,90,5.82,0.0,0.0
88,Husavik,IS,2020-02-22 06:33:21,66.04,-17.34,snow,27.93,27.93,92,100,15.59,0.0,0.07362204724409449
89,Vaini,TO,2020-02-22 06:34:01,-21.2,-175.2,smoke,80.6,80.6,78,75,13.87,0.0,0.0
90,Sao Joao da Barra,BR,2020-02-22 06:34:01,-21.64,-41.05,light rain,75.7,75.7,90,49,11.48,0.03188976377952756,0.0
91,Busselton,AU,2020-02-22 06:34:01,-33.65,115.33,overcast clouds,73.0,80.01,40,100,9.24,0.0,0.0
92,Saskylakh,RU,2020-02-22 06:34:01,71.92,114.08,overcast clouds,-9.89,-9.89,96,99,8.39,0.0,0.0
93,Punta Arenas,CL,2020-02-22 06:34:01,-53.15,-70.92,broken clouds,53.01,53.6,81,79,14.99,0.0,0.0
94,Tasiilaq,GL,2020-02-22 06:34:01,65.61,-37.64,broken clouds,17.6,17.6,61,66,2.24,0.0,0.0
95,Goderich,CA,2020-02-22 06:30:33,43.75,-81.72,clear sky,27.0,30.99,66,0,1.01,0.0,0.0
96,Khatanga,RU,2020-02-22 06:29:26,71.97,102.5,clear sky,-11.96,-11.96,95,0,8.05,0.0,0.0
97,Riyadh,SA,2020-02-22 06:31:31,24.69,46.72,clear sky,66.2,66.2,24,3,6.93,0.0,0.0
98,Urmenis,RO,2020-02-22 06:34:02,46.77,24.37,broken clouds,32.0,36.0,86,75,4.7,0.0,0.0
99,Itauna,BR,2020-02-22 06:34:02,-20.08,-44.58,overcast clouds,67.15,67.15,92,99,0.83,0.0,0.0
100,Bengkulu,ID,2020-02-22 06:34:03,-3.8,102.27,clear sky,89.87,89.87,53,6,4.16,0.0,0.0
101,Dingle,PH,2020-02-22 06:34:03,11.0,122.67,light rain,79.56,79.56,75,62,19.15,0.041732283464566935,0.0
102,Bambous Virieux,MU,2020-02-22 06:34:03,-20.34,57.76,few clouds,82.4,82.99,58,20,5.82,0.0,0.0
103,San Mateo,PH,2020-02-22 06:30:34,14.7,121.12,few clouds,89.01,89.6,40,20,17.22,0.0,0.0
104,Trapani,IT,2020-02-22 06:34:03,37.83,12.67,few clouds,41.0,53.6,93,20,2.24,0.0,0.0
105,Flinders,AU,2020-02-22 06:34:04,-34.58,150.86,overcast clouds,68.0,72.0,68,90,11.41,0.0,0.0
106,Mareeba,AU,2020-02-22 06:34:04,-17.0,145.43,light rain,77.0,82.0,94,75,9.17,0.0,0.0
107,Te Anau,NZ,2020-02-22 06:34:04,-45.42,167.72,few clouds,53.92,53.92,50,19,2.55,0.0,0.0
108,Iqaluit,CA,2020-02-22 06:33:10,63.75,-68.51,clear sky,-34.6,-34.01,65,5,3.36,0.0,0.0
109,Abramut,RO,2020-02-22 06:34:04,47.32,22.25,fog,26.6,32.0,92,0,1.12,0.0,0.0
110,San Patricio,MX,2020-02-22 06:33:18,19.22,-104.7,few clouds,76.33,76.33,82,19,3.69,0.0,0.0
111,Lebu,CL,2020-02-22 06:34:05,-37.62,-73.65,clear sky,49.96,49.96,98,4,1.86,0.0,0.0
112,Shakawe,BW,2020-02-22 06:34:05,-18.37,21.85,clear sky,75.33,75.33,68,10,0.98,0.0,0.0
113,Hannoversch Muenden,DE,2020-02-22 06:34:05,51.42,9.65,scattered clouds,36.0,41.0,70,40,8.05,0.0,0.0
114,Mount Isa,AU,2020-02-22 06:32:16,-20.73,139.5,overcast clouds,96.8,96.8,23,100,8.05,0.0,0.0
115,Joshimath,IN,2020-02-22 06:34:05,30.57,79.57,clear sky,46.62,46.62,31,0,4.45,0.0,0.0
116,Waingapu,ID,2020-02-22 06:34:06,-9.66,120.26,overcast clouds,82.98,82.98,75,99,10.4,0.0,0.0
117,Yellowknife,CA,2020-02-22 06:34:06,62.46,-114.35,clear sky,-0.4,1.0,84,5,10.29,0.0,0.0
118,Hilo,US,2020-02-22 06:34:06,19.73,-155.09,light rain,64.0,69.8,77,90,6.93,0.0,0.0
119,Bonavista,CA,2020-02-22 06:34:06,48.65,-53.11,scattered clouds,10.0,10.0,80,28,5.99,0.0,0.0
120,Nikolskoye,RU,2020-02-22 06:34:06,59.7,30.79,broken clouds,37.4,37.99,74,75,17.9,0.0,0.0
121,Palana,RU,2020-02-22 06:34:07,59.12,159.97,overcast clouds,3.52,3.52,78,100,6.29,0.0,0.0
122,Kachug,RU,2020-02-22 06:34:07,53.96,105.88,overcast clouds,20.97,20.97,86,100,3.85,0.0,0.0
123,Mehamn,NO,2020-02-22 06:34:07,71.04,27.85,overcast clouds,29.01,29.01,81,100,24.38,0.0,0.0
124,Klaksvik,FO,2020-02-22 06:34:07,62.23,-6.59,moderate rain,33.8,33.8,68,76,36.91,0.0,0.0
125,Saint George,US,2020-02-22 06:31:22,37.1,-113.58,clear sky,36.0,53.6,23,1,3.36,0.0,0.0
126,Talcahuano,CL,2020-02-22 06:34:07,-36.72,-73.12,clear sky,55.4,55.4,87,3,2.24,0.0,0.0
127,Marabu,MY,2020-02-22 06:34:08,4.41,114.01,broken clouds,91.4,91.4,63,75,10.29,0.0,0.0
128,Ilulissat,GL,2020-02-22 06:34:08,69.22,-51.1,overcast clouds,-5.8,-5.8,53,100,4.7,0.0,0.0
129,Banjarmasin,ID,2020-02-22 06:34:08,-3.32,114.59,light rain,84.18,84.18,70,100,3.24,0.09094488188976378,0.0
130,Acapulco de Juarez,MX,2020-02-22 06:32:05,16.86,-99.89,clear sky,77.0,77.0,94,5,3.36,0.0,0.0
131,Isangel,VU,2020-02-22 06:34:08,-19.55,169.27,broken clouds,86.0,86.0,70,75,13.56,0.0,0.0
132,Antipino,RU,2020-02-22 06:34:08,57.11,65.76,overcast clouds,28.4,28.4,92,90,4.47,0.0,0.0
133,Alice Springs,AU,2020-02-22 06:30:10,-23.7,133.88,clear sky,91.4,91.4,12,0,17.22,0.0,0.0
134,Chhor,PK,2020-02-22 06:34:09,25.52,69.77,clear sky,82.18,82.18,22,0,15.05,0.0,0.0
135,Lorengau,PG,2020-02-22 06:29:27,-2.02,147.27,light rain,84.11,84.11,75,37,11.27,0.007480314960629922,0.0
136,San Policarpo,PH,2020-02-22 06:34:09,12.18,125.51,light rain,78.73,78.73,80,67,12.68,0.03464566929133858,0.0
137,Vardo,NO,2020-02-22 06:34:09,70.37,31.11,overcast clouds,33.15,33.15,84,97,33.46,0.0,0.0
138,Souillac,MU,2020-02-22 06:34:09,-20.52,57.52,few clouds,82.4,82.99,58,20,5.82,0.0,0.0
139,Cabo San Lucas,MX,2020-02-22 06:34:00,22.89,-109.91,overcast clouds,64.99,69.01,64,100,10.58,0.0,0.0
140,Umm Lajj,SA,2020-02-22 06:32:47,25.02,37.27,few clouds,65.95,65.95,30,17,7.7,0.0,0.0
141,Cockburn Town,TC,2020-02-22 06:34:10,21.46,-71.14,scattered clouds,77.23,77.23,73,48,8.01,0.0,0.0
142,East Moline,US,2020-02-22 06:34:10,41.5,-90.44,clear sky,26.01,30.99,54,1,8.05,0.0,0.0
143,Carutapera,BR,2020-02-22 06:34:10,-1.2,-46.02,light rain,79.99,79.99,78,100,2.46,0.04921259842519685,0.0
144,Chipata,ZM,2020-02-22 06:34:10,-13.63,32.65,overcast clouds,74.19,74.19,86,98,1.66,0.0,0.0
145,Hohhot,CN,2020-02-22 06:34:11,40.81,111.65,clear sky,32.0,32.0,27,0,11.18,0.0,0.0
146,Mandla,IN,2020-02-22 06:34:11,22.6,80.38,few clouds,85.82,85.82,30,11,8.05,0.0,0.0
147,Beringovskiy,RU,2020-02-22 06:34:11,63.05,179.32,clear sky,-10.53,-10.53,78,1,0.6,0.0,0.0
148,Harper,LR,2020-02-22 06:34:11,4.38,-7.72,overcast clouds,76.57,76.57,93,97,1.92,0.0,0.0
149,Erdenet,MN,2020-02-22 06:34:11,49.03,104.08,broken clouds,17.91,17.91,73,74,4.03,0.0,0.0
150,Woodward,US,2020-02-22 06:34:12,36.43,-99.39,clear sky,33.01,39.2,64,1,16.11,0.0,0.0
151,Walvis Bay,,2020-02-22 06:34:12,-22.96,14.51,overcast clouds,64.0,64.4,88,96,8.05,0.0,0.0
152,Kavieng,PG,2020-02-22 06:34:12,-2.57,150.8,light rain,83.77,83.77,77,11,12.19,0.0641732283464567,0.0
153,Kavaratti,IN,2020-02-22 06:34:12,10.57,72.64,few clouds,86.0,86.0,74,20,4.7,0.0,0.0
154,Amoy,CN,2020-02-22 06:34:12,24.48,118.08,clear sky,71.6,71.6,56,0,13.42,0.0,0.0
155,Fairbanks,US,2020-02-22 06:34:12,64.84,-147.72,broken clouds,9.0,14.0,78,75,1.1,0.0,0.0
156,Matosinhos,PT,2020-02-22 06:34:13,41.18,-8.69,clear sky,37.0,48.99,81,0,3.36,0.0,0.0
157,Westport,US,2020-02-22 06:33:51,41.14,-73.36,clear sky,21.0,34.0,42,1,8.05,0.0,0.0
158,Hasaki,JP,2020-02-22 06:34:13,35.73,140.83,broken clouds,60.8,64.4,55,75,19.46,0.0,0.0
159,Adrar,MR,2020-02-22 06:34:13,20.5,-10.07,overcast clouds,70.7,70.7,14,100,13.02,0.0,0.0
160,Deputatsky,RU,2020-02-22 06:34:13,69.3,139.9,overcast clouds,-5.28,-5.28,100,98,1.95,0.0,0.0
161,Takoradze,GH,2020-02-22 06:34:14,4.88,-1.76,few clouds,76.91,76.91,94,17,2.71,0.0,0.0
162,Oranjemund,,2020-02-22 06:34:14,-28.55,16.43,broken clouds,63.46,63.46,85,79,14.97,0.0,0.0
163,Vetluzhskiy,RU,2020-02-22 06:34:14,58.39,45.47,overcast clouds,34.16,34.16,88,99,11.59,0.0,0.0
164,Arraial do Cabo,BR,2020-02-22 06:30:03,-22.97,-42.03,light rain,76.55,76.55,90,98,10.58,0.05669291338582678,0.0
165,Iquique,CL,2020-02-22 06:31:18,-20.22,-70.14,overcast clouds,73.4,73.4,64,98,6.93,0.0,0.0
166,Bredasdorp,ZA,2020-02-22 06:34:15,-34.53,20.04,few clouds,71.01,71.6,60,13,9.17,0.0,0.0
167,Hobart,AU,2020-02-22 06:34:15,-42.88,147.33,few clouds,64.99,73.0,49,16,17.22,0.0,0.0
168,Chase,CA,2020-02-22 06:33:29,50.82,-119.69,broken clouds,23.0,32.0,93,75,3.36,0.0,0.0
169,Eyl,SO,2020-02-22 06:34:15,7.98,49.82,broken clouds,77.41,77.41,73,76,17.38,0.0,0.0
170,Maniitsoq,GL,2020-02-22 06:34:15,65.42,-52.9,light snow,7.92,7.92,85,100,6.17,0.0,0.024803149606299216
171,Smirnykh,RU,2020-02-22 06:34:16,49.75,142.83,light snow,18.16,18.16,94,78,9.53,0.0,0.007480314960629922
172,Dikson,RU,2020-02-22 06:34:16,73.51,80.55,overcast clouds,11.73,11.73,91,100,22.32,0.0,0.0
173,Zaysan,KZ,2020-02-22 06:34:16,47.47,84.87,overcast clouds,23.86,23.86,91,100,4.09,0.0,0.0
174,Muroto,JP,2020-02-22 06:30:53,33.28,134.15,scattered clouds,62.6,62.6,55,40,17.22,0.0,0.0
175,Laguna,US,2020-02-22 06:34:16,38.42,-121.42,clear sky,48.2,61.0,47,1,5.82,0.0,0.0
176,Castro,BR,2020-02-22 06:34:17,-24.79,-50.01,light rain,62.82,62.82,99,95,4.52,0.007480314960629922,0.0
177,Katsuura,JP,2020-02-22 06:34:17,35.13,140.3,scattered clouds,62.01,63.0,55,40,25.28,0.0,0.0
178,Tutoia,BR,2020-02-22 06:34:17,-2.76,-42.27,light rain,72.16,72.16,97,100,2.39,0.04448818897637795,0.0
179,Pueblo,US,2020-02-22 06:32:13,38.25,-104.61,clear sky,30.0,37.4,80,1,5.46,0.0,0.0
180,Esperance,AU,2020-02-22 06:29:55,-33.87,121.9,scattered clouds,86.0,86.0,30,40,6.93,0.0,0.0
181,Saint-Augustin,CA,2020-02-22 06:34:17,51.23,-58.65,scattered clouds,5.74,5.74,96,40,9.64,0.0,0.0
182,Bukama,CD,2020-02-22 06:34:18,-9.2,25.85,overcast clouds,74.66,74.66,85,100,1.83,0.0,0.0
183,Salalah,OM,2020-02-22 06:34:18,17.02,54.09,scattered clouds,78.8,78.8,65,40,6.93,0.0,0.0
184,Tobias Barreto,BR,2020-02-22 06:34:18,-11.18,-38.0,broken clouds,73.18,73.18,95,83,4.68,0.0,0.0
185,Sangin,AF,2020-02-22 06:34:18,32.07,64.84,few clouds,63.21,63.21,26,14,1.48,0.0,0.0
186,Quattro Castella,IT,2020-02-22 06:34:18,44.63,10.47,mist,33.8,42.01,100,20,4.7,0.0,0.0
187,Qurayyat,SA,2020-02-22 06:34:18,31.33,37.34,clear sky,51.8,51.8,62,0,4.07,0.0,0.0
188,Bulawayo,ZW,2020-02-22 06:34:19,-20.15,28.58,broken clouds,69.8,69.8,83,75,6.93,0.0,0.0
189,Nar'yan-Mar,RU,2020-02-22 06:34:19,67.67,53.09,overcast clouds,26.96,26.96,88,100,24.18,0.0,0.0
190,Taoudenni,ML,2020-02-22 06:34:19,22.68,-3.98,clear sky,68.11,68.11,15,0,8.66,0.0,0.0
191,Yatou,CN,2020-02-22 06:34:19,37.15,122.38,clear sky,40.08,40.08,48,0,18.99,0.0,0.0
192,Bodden Town,KY,2020-02-22 06:34:19,19.28,-81.25,light rain,78.01,78.01,80,0,3.0,0.007480314960629922,0.0
193,Buala,SB,2020-02-22 06:34:20,-8.14,159.59,moderate rain,84.56,84.56,73,93,3.83,0.2362204724409449,0.0
194,La Ronge,CA,2020-02-22 06:34:20,55.1,-105.28,few clouds,32.0,32.0,82,20,8.05,0.0,0.0
195,Safford,US,2020-02-22 06:34:20,32.83,-109.71,clear sky,45.0,53.6,54,1,11.41,0.0,0.0
196,Sao Felix do Xingu,BR,2020-02-22 06:34:20,-6.64,-51.99,overcast clouds,70.7,70.7,99,100,1.12,0.0,0.0
197,Mossamedes,AO,2020-02-22 06:34:20,-15.2,12.15,broken clouds,75.15,75.15,75,79,15.03,0.0,0.0
198,Kasongo,CD,2020-02-22 06:34:21,-4.45,26.67,overcast clouds,76.69,76.69,87,100,1.1,0.0,0.0
199,Labuhan,ID,2020-02-22 06:34:21,-6.88,112.21,light rain,86.67,86.67,73,12,9.55,0.041732283464566935,0.0
200,Russell,US,2020-02-22 06:34:21,32.35,-85.2,mist,30.2,34.0,92,1,3.94,0.0,0.0
201,Bandarbeyla,SO,2020-02-22 06:34:21,9.49,50.81,few clouds,77.29,77.29,69,19,11.12,0.0,0.0
202,Pingliang,CN,2020-02-22 06:31:57,35.54,106.69,clear sky,46.36,46.36,34,0,6.6,0.0,0.0
203,Inongo,CD,2020-02-22 06:34:21,-1.95,18.27,light rain,77.9,77.9,75,97,0.76,0.00984251968503937,0.0
204,Grindavik,IS,2020-02-22 06:34:22,63.84,-22.43,scattered clouds,30.2,32.0,77,40,17.22,0.0,0.0
205,Fortuna,US,2020-02-22 06:34:22,40.6,-124.16,overcast clouds,44.01,48.99,93,90,1.23,0.0,0.0
206,Butaritari,KI,2020-02-22 06:34:22,3.07,172.79,light rain,79.93,79.93,81,100,10.29,0.06653543307086614,0.0
207,Provideniya,RU,2020-02-22 06:34:22,64.38,-173.3,overcast clouds,-16.55,-16.55,99,91,2.48,0.0,0.0
208,Santa Cruz de la Sierra,BO,2020-02-22 06:34:23,-17.8,-63.17,overcast clouds,73.4,73.4,56,90,26.4,0.0,0.0
209,Coquimbo,CL,2020-02-22 06:34:23,-29.95,-71.34,overcast clouds,60.8,60.8,87,90,2.24,0.0,0.0
210,Shipitsyno,RU,2020-02-22 06:34:23,61.28,46.52,overcast clouds,33.22,33.22,86,93,10.63,0.0,0.0
211,Kjollefjord,NO,2020-02-22 06:34:23,70.95,27.35,overcast clouds,31.78,31.78,78,92,25.41,0.0,0.0
212,Nanjing,CN,2020-02-22 06:34:24,32.06,118.78,clear sky,60.01,62.6,29,0,6.71,0.0,0.0
213,Quatre Cocos,MU,2020-02-22 06:34:24,-20.21,57.76,few clouds,82.4,82.99,58,20,5.82,0.0,0.0
214,Ningbo,CN,2020-02-22 06:34:24,29.88,121.55,clear sky,64.0,64.4,31,0,8.95,0.0,0.0
215,Muros,ES,2020-02-22 06:34:24,42.78,-9.06,fog,35.6,53.01,100,75,4.7,0.0,0.0
216,Carnarvon,AU,2020-02-22 06:34:24,-24.87,113.63,scattered clouds,84.2,84.2,62,40,13.87,0.0,0.0
217,George Town,MY,2020-02-22 06:29:35,5.41,100.34,few clouds,91.0,93.2,46,20,13.87,0.0,0.0
218,Victor Harbor,AU,2020-02-22 06:34:25,-35.57,138.62,clear sky,71.01,77.0,53,0,17.22,0.0,0.0
219,Qeshm,IR,2020-02-22 06:34:25,26.96,56.27,haze,75.2,77.0,69,75,2.24,0.0,0.0
220,Yerbogachen,RU,2020-02-22 06:31:14,61.28,108.01,overcast clouds,20.39,20.39,93,100,6.11,0.0,0.0
221,Rudnaya Pristan',RU,2020-02-22 06:34:25,44.36,135.81,snow,29.8,29.8,98,100,8.75,0.0,0.3299212598425197
222,Auki,SB,2020-02-22 06:34:25,-8.77,160.7,scattered clouds,85.08,85.08,72,42,7.4,0.0,0.0
223,Halifax,CA,2020-02-22 06:29:45,44.65,-63.57,clear sky,10.99,17.01,78,5,6.93,0.0,0.0
224,Moses Lake,US,2020-02-22 06:33:28,47.13,-119.28,clear sky,27.0,32.0,68,1,4.7,0.0,0.0
225,Mount Gambier,AU,2020-02-22 06:30:48,-37.83,140.77,clear sky,69.8,69.8,56,4,18.34,0.0,0.0
226,Dawei,MM,2020-02-22 06:34:47,14.08,98.2,clear sky,86.29,86.29,53,0,10.89,0.0,0.0
227,Codrington,AU,2020-02-22 06:34:47,-38.27,141.97,broken clouds,60.15,60.15,72,56,13.8,0.0,0.0
228,Lesnyye Polyany,RU,2020-02-22 06:34:48,55.97,37.87,overcast clouds,30.2,34.0,80,100,8.95,0.0,0.0
229,Wuwei,CN,2020-02-22 06:34:48,37.93,102.64,clear sky,46.92,46.92,20,0,5.3,0.0,0.0
230,Kerema,PG,2020-02-22 06:34:48,-7.96,145.78,overcast clouds,90.64,90.64,53,100,3.94,0.0,0.0
231,Puertollano,ES,2020-02-22 06:34:48,38.69,-4.11,scattered clouds,35.01,35.01,80,39,2.1,0.0,0.0
232,Salina Cruz,MX,2020-02-22 06:34:49,16.17,-95.2,clear sky,75.74,75.74,70,0,48.34,0.0,0.0
233,Orlik,RU,2020-02-22 06:34:49,52.52,99.83,overcast clouds,15.4,15.4,78,100,4.79,0.0,0.0
234,Touros,BR,2020-02-22 06:34:49,-5.2,-35.46,shower rain,77.0,77.0,94,40,2.24,0.0,0.0
235,Port Macquarie,AU,2020-02-22 06:34:49,-31.43,152.92,light rain,68.0,72.0,100,90,6.93,0.0,0.0
236,Kosice,SK,2020-02-22 06:34:49,48.67,21.33,clear sky,26.6,30.2,92,0,1.12,0.0,0.0
237,Sladkovo,RU,2020-02-22 06:32:04,55.53,70.34,light snow,31.3,31.3,97,100,6.87,0.0,0.0051181102362204715
238,Bethel,US,2020-02-22 06:33:22,41.37,-73.41,clear sky,19.99,32.0,42,1,5.82,0.0,0.0
239,Moose Factory,CA,2020-02-22 06:34:50,51.26,-80.61,clear sky,26.6,26.6,63,1,12.75,0.0,0.0
240,Gushikawa,JP,2020-02-22 06:34:50,26.35,127.87,overcast clouds,71.6,73.4,43,90,11.41,0.0,0.0
241,Huicungo,PE,2020-02-22 06:34:50,-7.28,-76.8,light rain,65.35,65.35,97,100,3.06,0.0937007874015748,0.0
242,Turan,VN,2020-02-22 06:34:20,16.07,108.22,scattered clouds,78.8,80.6,65,40,10.29,0.0,0.0
243,Miramar,US,2020-02-22 06:31:01,25.99,-80.23,overcast clouds,57.0,60.8,77,90,16.11,0.0,0.0
244,Kolda,SN,2020-02-22 06:34:51,12.88,-14.95,broken clouds,69.08,69.08,31,58,3.83,0.0,0.0
245,Rebrikha,RU,2020-02-22 06:34:51,53.07,82.34,overcast clouds,23.41,23.41,90,100,2.39,0.0,0.0
246,Ligayan,PH,2020-02-22 06:34:51,4.65,119.47,broken clouds,82.74,82.74,74,66,13.87,0.0,0.0
247,Rio Brilhante,BR,2020-02-22 06:34:51,-21.8,-54.55,broken clouds,65.95,65.95,77,83,8.84,0.0,0.0
248,San Cristobal,VE,2020-02-22 06:34:51,7.77,-72.22,haze,78.8,78.8,78,40,2.24,0.0,0.0
249,Hilton Head,US,2020-02-22 06:34:52,32.22,-80.75,clear sky,30.99,37.0,69,1,13.87,0.0,0.0
250,Wairoa,NZ,2020-02-22 06:34:52,-39.03,177.37,light rain,75.99,75.99,64,100,5.99,0.115748031496063,0.0
251,Polunochnoye,RU,2020-02-22 06:34:52,60.87,60.42,scattered clouds,23.61,23.61,87,37,6.53,0.0,0.0
252,Nanortalik,GL,2020-02-22 06:34:52,60.14,-45.24,broken clouds,24.12,24.12,81,83,15.32,0.0,0.0
253,Cherskiy,RU,2020-02-22 06:33:04,68.75,161.3,overcast clouds,-18.98,-18.98,98,100,3.98,0.0,0.0
254,Marrakesh,MA,2020-02-22 06:34:52,31.63,-8.01,clear sky,50.0,50.0,57,0,2.24,0.0,0.0
255,Bathsheba,BB,2020-02-22 06:34:53,13.22,-59.52,few clouds,77.0,77.0,73,20,10.29,0.0,0.0
256,Ladario,BR,2020-02-22 06:34:53,-19.0,-57.6,light rain,67.93,67.93,91,97,4.47,0.014960629921259844,0.0
257,Saveh,IR,2020-02-22 06:34:53,35.02,50.36,scattered clouds,53.17,53.17,51,48,3.42,0.0,0.0
258,Kumul,CN,2020-02-22 06:34:53,42.8,93.45,scattered clouds,40.06,40.06,34,26,4.07,0.0,0.0
259,Maragogi,BR,2020-02-22 06:34:53,-9.01,-35.22,light rain,81.59,81.59,78,32,9.08,0.0051181102362204715,0.0
260,Inuvik,CA,2020-02-22 06:34:53,68.35,-133.72,light snow,-0.4,-0.4,77,75,3.36,0.0,0.0
261,Waipawa,NZ,2020-02-22 06:34:54,-41.41,175.52,overcast clouds,63.0,66.0,82,100,10.29,0.0,0.0
262,Bo Rai,TH,2020-02-22 06:34:54,12.57,102.54,clear sky,86.0,93.2,44,2,23.04,0.0,0.0
263,Guerrero Negro,MX,2020-02-22 06:34:54,27.98,-114.06,overcast clouds,65.91,65.91,54,100,8.39,0.0,0.0
264,Natal,BR,2020-02-22 06:30:42,-5.79,-35.21,scattered clouds,77.0,77.0,88,40,8.05,0.0,0.0
265,Ostrovnoy,RU,2020-02-22 06:30:53,68.05,39.51,overcast clouds,32.52,32.52,86,94,29.1,0.0,0.0
266,Cidreira,BR,2020-02-22 06:34:55,-30.18,-50.21,clear sky,66.49,66.49,69,0,23.69,0.0,0.0
267,Bonoua,CI,2020-02-22 06:34:55,5.27,-3.6,scattered clouds,82.4,82.4,94,42,8.05,0.0,0.0
268,Haines Junction,CA,2020-02-22 06:34:55,60.75,-137.51,overcast clouds,10.29,10.29,89,86,13.49,0.0,0.0
269,Atbasar,KZ,2020-02-22 06:34:55,51.8,68.33,overcast clouds,27.07,27.07,87,100,10.83,0.0,0.0
270,Winfield,US,2020-02-22 06:34:55,37.24,-97.0,clear sky,28.99,36.0,58,1,9.17,0.0,0.0
271,Tommot,RU,2020-02-22 06:34:55,58.96,126.29,light snow,15.82,15.82,89,100,5.59,0.0,0.007480314960629922
272,Adre,TD,2020-02-22 06:34:56,13.47,22.2,broken clouds,64.8,64.8,18,75,17.38,0.0,0.0
273,Taltal,CL,2020-02-22 06:34:56,-25.4,-70.48,scattered clouds,58.84,58.84,89,48,3.44,0.0,0.0
274,Abha,SA,2020-02-22 06:34:56,18.22,42.51,broken clouds,66.2,66.2,45,71,14.99,0.0,0.0
275,Bria,CF,2020-02-22 06:34:56,6.54,21.99,scattered clouds,73.13,73.13,26,31,5.73,0.0,0.0
276,Ugoofaaru,MV,2020-02-22 06:34:57,5.67,73.0,light rain,82.89,82.89,78,100,16.51,0.0051181102362204715,0.0
277,Bayonet Point,US,2020-02-22 06:31:12,28.33,-82.68,clear sky,39.99,46.99,70,1,8.05,0.0,0.0
278,Ngunguru,NZ,2020-02-22 06:34:57,-35.62,174.5,moderate rain,70.0,70.0,87,100,4.0,0.29015748031496064,0.0
279,Mayo,US,2020-02-22 06:31:21,38.89,-76.51,clear sky,21.0,32.0,63,1,6.11,0.0,0.0
280,Port Lincoln,AU,2020-02-22 06:31:32,-34.73,135.87,clear sky,69.73,69.73,55,1,10.36,0.0,0.0
281,Poum,NC,2020-02-22 06:34:58,-20.23,164.02,few clouds,80.92,80.92,77,20,13.67,0.0,0.0
282,Yeppoon,AU,2020-02-22 06:34:58,-23.13,150.73,light intensity shower rain,80.6,80.6,74,90,12.75,0.0,0.0
283,Kitgum,UG,2020-02-22 06:34:58,3.28,32.89,few clouds,84.7,84.7,36,24,10.71,0.0,0.0
284,Gamba,GA,2020-02-22 06:34:58,-2.65,10.0,light rain,79.02,79.02,87,100,4.09,0.07125984251968505,0.0
285,Ancud,CL,2020-02-22 06:34:58,-41.87,-73.82,clear sky,51.8,51.8,66,0,5.82,0.0,0.0
286,Kabanjahe,ID,2020-02-22 06:34:58,3.1,98.49,light rain,84.2,86.0,74,40,6.93,0.0,0.0
287,Provincia di Mantova,IT,2020-02-22 06:32:45,45.17,10.78,broken clouds,33.01,44.01,85,60,3.36,0.0,0.0
288,Faanui,PF,2020-02-22 06:34:59,-16.48,-151.75,light rain,82.38,82.38,78,8,13.58,0.01220472440944882,0.0
289,Torbay,CA,2020-02-22 06:34:59,47.67,-52.73,clear sky,6.01,14.0,72,5,11.41,0.0,0.0
290,Luanda,AO,2020-02-22 06:34:59,-8.84,13.23,broken clouds,80.6,80.6,88,75,3.36,0.0,0.0
291,Doha,QA,2020-02-22 06:30:57,25.29,51.53,clear sky,68.0,69.8,68,0,8.05,0.0,0.0
292,Piacabucu,BR,2020-02-22 06:35:00,-10.41,-36.43,broken clouds,79.16,79.16,82,66,7.34,0.0,0.0
293,Pangoa,PE,2020-02-22 06:35:00,-12.12,-73.0,moderate rain,70.59,70.59,99,100,1.03,0.30748031496062994,0.0
294,Mana,GF,2020-02-22 06:35:00,5.66,-53.78,broken clouds,71.78,71.78,98,52,1.32,0.0,0.0
295,Sept-Iles,CA,2020-02-22 06:35:00,50.2,-66.38,light snow,21.2,21.2,79,90,5.82,0.0,0.0
296,Huejuquilla el Alto,MX,2020-02-22 06:35:00,22.6,-103.87,broken clouds,64.33,64.33,50,78,1.01,0.0,0.0
297,Guanambi,BR,2020-02-22 06:35:00,-14.22,-42.78,light rain,71.11,71.11,90,88,1.68,0.00984251968503937,0.0
298,Sungai Besar,MY,2020-02-22 06:35:01,3.67,100.99,scattered clouds,87.01,87.8,70,40,4.7,0.0,0.0
299,Kampene,CD,2020-02-22 06:35:01,-3.6,26.67,light rain,73.49,73.49,95,100,0.47,0.0937007874015748,0.0
300,Horta,PT,2020-02-22 06:35:01,38.53,-28.63,overcast clouds,56.73,56.73,83,88,5.59,0.0,0.0
301,Bokovskaya,RU,2020-02-22 06:35:01,49.23,41.83,light snow,31.12,31.12,97,98,10.0,0.0,0.022047244094488192
302,Samarai,PG,2020-02-22 06:35:01,-10.62,150.67,light rain,86.61,86.61,65,39,6.46,0.07401574803149606,0.0
303,Moranbah,AU,2020-02-22 06:35:02,-22.0,148.05,broken clouds,88.65,88.65,50,74,21.21,0.0,0.0
304,Krasnokamensk,RU,2020-02-22 06:35:02,50.1,118.04,clear sky,14.43,14.43,87,0,6.78,0.0,0.0
305,Nantucket,US,2020-02-22 06:35:02,41.28,-70.1,clear sky,24.01,32.0,50,1,9.17,0.0,0.0
306,Jackson,US,2020-02-22 06:32:01,42.42,-122.83,clear sky,34.0,44.6,60,1,2.62,0.0,0.0
307,Puerto Escondido,MX,2020-02-22 06:35:02,15.85,-97.07,clear sky,72.55,72.55,48,0,7.63,0.0,0.0
308,Ilo,PE,2020-02-22 06:35:02,-17.64,-71.34,overcast clouds,72.55,72.55,91,100,4.41,0.0,0.0
309,Gornopravdinsk,RU,2020-02-22 06:35:03,60.05,69.9,clear sky,11.53,11.53,84,0,3.11,0.0,0.0
310,Shitkino,RU,2020-02-22 06:35:03,56.37,98.35,light snow,23.94,23.94,90,99,6.2,0.0,0.00984251968503937
311,Tautira,PF,2020-02-22 06:35:03,-17.73,-149.15,few clouds,82.0,82.4,74,20,3.36,0.0,0.0
312,Buy,RU,2020-02-22 06:35:03,58.48,41.53,overcast clouds,33.67,33.67,90,89,14.25,0.0,0.0
313,Inta,RU,2020-02-22 06:35:03,66.03,60.17,overcast clouds,17.96,17.96,85,90,20.4,0.0,0.0
314,Varadero,CU,2020-02-22 06:35:04,23.15,-81.25,scattered clouds,71.6,71.6,68,40,16.11,0.0,0.0
315,Mandalgovi,MN,2020-02-22 06:35:04,45.76,106.27,clear sky,23.7,23.7,51,4,15.99,0.0,0.0
316,Port Blair,IN,2020-02-22 06:35:04,11.67,92.75,clear sky,81.73,81.73,74,0,15.88,0.0,0.0
317,Upernavik,GL,2020-02-22 06:35:04,72.79,-56.15,overcast clouds,-17.0,-17.0,96,94,1.07,0.0,0.0
318,Roald,NO,2020-02-22 06:35:04,62.58,6.13,scattered clouds,30.0,41.0,86,40,21.92,0.0,0.0
319,Miracema do Tocantins,BR,2020-02-22 06:35:05,-9.56,-48.4,overcast clouds,71.94,71.94,94,100,2.95,0.0,0.0
320,Hay River,CA,2020-02-22 06:30:28,60.82,-115.8,few clouds,8.6,8.6,84,20,8.3,0.0,0.0
321,Warragul,AU,2020-02-22 06:32:47,-38.17,145.93,few clouds,66.99,75.0,59,18,5.01,0.0,0.0
322,Cayenne,GF,2020-02-22 06:30:09,4.93,-52.33,light rain,75.2,75.2,94,73,1.12,0.014960629921259844,0.0
323,Plaster Rock,CA,2020-02-22 06:35:06,46.91,-67.39,clear sky,3.2,12.99,51,1,5.82,0.0,0.0
324,Mezhdurechensk,RU,2020-02-22 06:35:06,53.69,88.06,overcast clouds,25.81,25.81,88,100,4.47,0.0,0.0
325,Kasungu,MW,2020-02-22 06:35:06,-13.03,33.48,overcast clouds,71.46,71.46,91,100,3.87,0.0,0.0
326,Batagay,RU,2020-02-22 06:35:06,67.63,134.63,light snow,-1.64,-1.64,94,100,2.89,0.0,0.004724409448818898
327,Petropavl,KZ,2020-02-22 06:35:07,54.88,69.16,light shower snow,24.8,24.8,92,75,4.47,0.0,0.0
328,Puli,TW,2020-02-22 06:35:07,23.97,120.97,broken clouds,73.0,79.0,69,75,10.29,0.0,0.0
329,Ahipara,NZ,2020-02-22 06:35:07,-35.17,173.17,overcast clouds,73.0,73.0,100,100,14.63,0.0,0.0
330,Sao Felix da Marinha,PT,2020-02-22 06:35:07,41.04,-8.62,clear sky,37.0,48.99,100,0,1.12,0.0,0.0
331,Marechal Deodoro,BR,2020-02-22 06:35:07,-9.71,-35.9,broken clouds,77.0,77.0,94,75,3.36,0.0,0.0
332,Alofi,NU,2020-02-22 06:35:08,-19.06,-169.92,broken clouds,80.6,80.6,88,75,9.17,0.0,0.0
333,Bubaque,GW,2020-02-22 06:35:08,11.28,-15.83,overcast clouds,77.16,77.16,54,96,13.82,0.0,0.0
334,Manta,EC,2020-02-22 06:35:08,-0.95,-80.73,scattered clouds,80.6,80.6,83,40,3.36,0.0,0.0
335,Krasnoarmeysk,RU,2020-02-22 06:35:08,51.02,45.7,overcast clouds,28.0,28.0,88,100,4.0,0.0,0.0
336,Lompoc,US,2020-02-22 06:30:42,34.64,-120.46,overcast clouds,50.0,57.99,82,90,3.36,0.0,0.0
337,Sekoma,BW,2020-02-22 06:35:09,-24.4,23.88,broken clouds,78.46,78.46,54,71,9.31,0.0,0.0
338,Pangkalanbuun,ID,2020-02-22 06:30:14,-2.68,111.62,moderate rain,83.48,83.48,85,81,2.98,0.2437007874015749,0.0
339,Antalaha,MG,2020-02-22 06:35:09,-14.9,50.28,broken clouds,82.2,82.2,70,82,8.19,0.0,0.0
340,Bangui,CF,2020-02-22 06:35:09,4.36,18.55,overcast clouds,73.4,73.4,100,90,3.36,0.0,0.0
341,Imbituba,BR,2020-02-22 06:35:09,-28.24,-48.67,clear sky,68.0,68.0,68,5,11.41,0.0,0.0
342,Bogande,BF,2020-02-22 06:35:10,12.97,-0.14,scattered clouds,69.85,69.85,14,49,8.77,0.0,0.0
343,Rzeszow,PL,2020-02-22 06:35:10,50.04,22.0,fog,28.0,33.01,100,12,4.7,0.0,0.0
344,Ruteng,ID,2020-02-22 06:35:10,-8.61,120.47,moderate rain,77.77,77.77,84,74,3.96,0.1968503937007874,0.0
345,Camacha,PT,2020-02-22 06:35:10,33.08,-16.33,scattered clouds,62.6,62.6,82,40,17.22,0.0,0.0
346,Khanbari,NP,2020-02-22 06:35:10,27.37,87.2,light rain,48.47,48.47,70,86,4.45,0.01732283464566929,0.0
347,Kirovskiy,RU,2020-02-22 06:35:10,45.09,133.51,light snow,19.04,19.04,94,100,12.17,0.0,0.044094488188976384
348,Myskhako,RU,2020-02-22 06:35:11,44.67,37.74,light intensity shower rain,37.4,39.0,100,75,11.18,0.0,0.0
349,Matara,LK,2020-02-22 06:35:11,5.95,80.54,few clouds,92.23,92.23,50,11,12.75,0.0,0.0
350,Aquiraz,BR,2020-02-22 06:35:11,-3.9,-38.39,thunderstorm,75.2,75.99,88,75,10.29,0.0,0.0
351,Curup,ID,2020-02-22 06:35:11,-3.47,102.53,scattered clouds,84.97,84.97,50,32,2.26,0.0,0.0
352,'Ahuimanu,US,2020-02-22 06:35:12,21.44,-157.84,broken clouds,69.01,75.2,64,75,11.41,0.0,0.0
353,Lebrija,ES,2020-02-22 06:35:12,36.92,-6.08,scattered clouds,44.6,52.0,87,33,4.85,0.0,0.0
354,Port Keats,AU,2020-02-22 06:35:12,-14.25,129.55,broken clouds,96.06,96.06,39,69,8.77,0.0,0.0
355,Syracuse,IT,2020-02-22 06:35:12,37.09,15.28,clear sky,33.8,46.0,100,5,4.7,0.0,0.0
356,Olafsvik,IS,2020-02-22 06:31:44,64.89,-23.71,overcast clouds,31.28,31.28,76,94,25.77,0.0,0.0
357,Luancheng,CN,2020-02-22 06:35:12,37.88,114.65,clear sky,53.6,53.6,12,0,4.47,0.0,0.0
358,Dhrol,IN,2020-02-22 06:35:13,22.57,70.42,clear sky,84.96,84.96,13,0,13.58,0.0,0.0
359,Miraflores,MX,2020-02-22 06:35:13,19.22,-98.81,clear sky,53.01,53.6,62,5,10.29,0.0,0.0
360,Havre-Saint-Pierre,CA,2020-02-22 06:35:13,50.23,-63.6,broken clouds,17.6,17.6,67,75,10.29,0.0,0.0
361,San Jose,US,2020-02-22 06:30:31,37.34,-121.89,broken clouds,52.0,62.01,44,75,2.26,0.0,0.0
362,Tiznit,MA,2020-02-22 06:35:14,29.58,-9.5,clear sky,57.2,57.2,24,0,20.24,0.0,0.0
363,Nosy Varika,MG,2020-02-22 06:35:14,-20.58,48.53,light rain,79.07,79.07,85,100,3.36,0.022047244094488192,0.0
364,Djibouti,DJ,2020-02-22 06:35:14,11.5,42.5,overcast clouds,80.6,80.6,74,90,5.82,0.0,0.0
365,Ternate,ID,2020-02-22 06:35:14,0.8,127.4,light rain,81.36,81.36,82,54,7.0,0.07125984251968505,0.0
366,Wilayat-e Zabul,AF,2020-02-22 06:35:14,32.25,67.25,scattered clouds,42.17,42.17,59,35,2.21,0.0,0.0
367,Mocuba,MZ,2020-02-22 06:35:14,-16.84,36.99,overcast clouds,81.0,81.0,80,98,2.17,0.0,0.0
368,Namatanai,PG,2020-02-22 06:35:15,-3.67,152.43,clear sky,85.08,85.08,75,0,13.62,0.0,0.0
369,Kwinana,AU,2020-02-22 06:35:15,-32.25,115.77,scattered clouds,80.01,82.99,58,40,8.05,0.0,0.0
370,Wajima,JP,2020-02-22 06:35:15,37.4,136.9,light intensity shower rain,48.2,48.2,100,75,24.16,0.0,0.0
371,Kilimatinde,TZ,2020-02-22 06:35:15,-5.85,34.95,overcast clouds,73.76,73.76,81,99,1.9,0.0,0.0
372,Nara,JP,2020-02-22 06:35:15,34.69,135.8,broken clouds,46.99,55.4,93,75,3.36,0.0,0.0
373,Portland,US,2020-02-22 06:32:57,45.52,-122.68,clear sky,35.01,46.0,70,1,6.93,0.0,0.0
374,Non Sang,TH,2020-02-22 06:35:16,16.87,102.57,scattered clouds,86.0,87.8,38,40,11.41,0.0,0.0
375,Naberera,TZ,2020-02-22 06:35:16,-4.2,36.93,overcast clouds,71.2,71.2,82,100,4.41,0.0,0.0
376,Kurilsk,RU,2020-02-22 06:35:16,45.23,147.88,overcast clouds,25.75,25.75,78,95,13.56,0.0,0.0
377,Pizarro,CO,2020-02-22 06:35:16,4.95,-77.37,light rain,78.93,78.93,86,99,13.58,0.0688976377952756,0.0
378,Volksrust,ZA,2020-02-22 06:35:16,-27.37,29.88,broken clouds,68.32,68.32,76,64,4.54,0.0,0.0
379,Bousso,TD,2020-02-22 06:35:17,10.48,16.71,clear sky,73.29,73.29,14,0,7.54,0.0,0.0
380,Gornyak,RU,2020-02-22 06:35:17,50.99,81.47,light snow,30.15,30.15,80,100,4.5,0.0,0.01220472440944882
381,Dom Pedrito,BR,2020-02-22 06:35:17,-30.98,-54.67,clear sky,49.35,49.35,80,0,6.89,0.0,0.0
382,Samana,DO,2020-02-22 06:35:17,19.21,-69.34,clear sky,65.79,65.79,95,6,2.66,0.0,0.0
383,Barra do Corda,BR,2020-02-22 06:35:17,-5.5,-45.25,light rain,70.27,70.27,99,86,1.28,0.06653543307086614,0.0
384,Nelson Bay,AU,2020-02-22 06:35:17,-32.72,152.15,broken clouds,73.0,75.0,78,75,16.11,0.0,0.0
385,Griffith,US,2020-02-22 06:34:16,41.53,-87.42,clear sky,24.8,30.2,73,1,11.41,0.0,0.0
386,Nanga Eboko,CM,2020-02-22 06:35:18,4.68,12.37,overcast clouds,71.53,71.53,87,94,2.15,0.0,0.0
387,Camana,PE,2020-02-22 06:35:18,-16.62,-72.71,overcast clouds,68.63,68.63,84,98,2.71,0.0,0.0
388,Tilichiki,RU,2020-02-22 06:35:18,60.47,166.1,scattered clouds,-11.7,-11.7,85,50,3.51,0.0,0.0
389,Muisne,EC,2020-02-22 06:35:18,0.6,-80.03,overcast clouds,77.81,77.81,87,89,4.83,0.0,0.0
390,Yangon,MM,2020-02-22 06:35:19,16.81,96.16,haze,91.4,91.4,43,0,9.17,0.0,0.0
391,Aklavik,CA,2020-02-22 06:35:19,68.22,-135.01,light snow,-0.4,-0.4,77,75,3.36,0.0,0.0
392,Smidovich,RU,2020-02-22 06:35:19,48.6,133.82,overcast clouds,15.33,15.33,84,100,6.29,0.0,0.0
393,Shingu,JP,2020-02-22 06:35:19,33.73,135.98,shower rain,60.8,60.8,87,75,6.93,0.0,0.0
394,Najran,SA,2020-02-22 06:35:19,17.49,44.13,scattered clouds,68.0,68.0,40,50,4.7,0.0,0.0
395,Champerico,GT,2020-02-22 06:35:20,14.3,-91.92,clear sky,74.91,74.91,72,3,2.82,0.0,0.0
396,Yuxia,CN,2020-02-22 06:35:20,34.06,108.63,clear sky,48.99,55.4,20,0,8.95,0.0,0.0
397,Chino Valley,US,2020-02-22 06:35:20,34.76,-112.45,clear sky,42.8,55.0,53,1,6.93,0.0,0.0
398,Carlyle,US,2020-02-22 06:35:20,38.61,-89.37,clear sky,26.6,30.99,63,1,10.29,0.0,0.0
399,Lagoa,PT,2020-02-22 06:35:20,39.05,-27.98,broken clouds,60.1,60.1,78,52,8.16,0.0,0.0
400,Fort Nelson,CA,2020-02-22 06:35:21,58.81,-122.7,broken clouds,33.8,33.8,47,75,6.93,0.0,0.0
401,Lata,PT,2020-02-22 06:35:21,40.16,-8.33,clear sky,33.01,55.99,93,0,2.24,0.0,0.0
402,Sistranda,NO,2020-02-22 06:35:22,63.73,8.83,broken clouds,37.4,37.4,93,75,12.75,0.0,0.0
403,Hauterive,FR,2020-02-22 06:35:22,46.09,3.45,few clouds,28.4,35.01,75,23,5.82,0.0,0.0
404,Milazzo,IT,2020-02-22 06:35:22,38.22,15.24,scattered clouds,48.2,55.99,81,40,3.36,0.0,0.0
405,Lienz,AT,2020-02-22 06:35:22,46.83,12.77,few clouds,25.0,28.4,58,20,3.67,0.0,0.0
406,Lunenburg,CA,2020-02-22 06:35:22,44.38,-64.32,clear sky,12.0,18.0,86,0,7.02,0.0,0.0
407,Rio Negrinho,BR,2020-02-22 06:35:23,-26.25,-49.52,light rain,54.0,66.99,94,100,1.01,0.00984251968503937,0.0
408,Itoman,JP,2020-02-22 06:33:42,26.12,127.67,broken clouds,71.6,73.4,64,75,6.93,0.0,0.0
409,Lodja,CD,2020-02-22 06:35:23,-3.48,23.43,light rain,74.08,74.08,94,76,1.57,0.041732283464566935,0.0
410,Ciudad Bolivar,VE,2020-02-22 06:35:23,8.12,-63.55,overcast clouds,75.94,75.94,66,96,11.97,0.0,0.0
411,Iskateley,RU,2020-02-22 06:35:23,67.68,53.15,overcast clouds,26.96,26.96,88,100,24.18,0.0,0.0
412,Artigas,UY,2020-02-22 06:35:23,-30.4,-56.47,clear sky,52.88,52.88,64,0,8.21,0.0,0.0
413,Zhigansk,RU,2020-02-22 06:35:24,66.77,123.37,overcast clouds,-6.5,-6.5,96,98,6.38,0.0,0.0
414,Otradnoye,RU,2020-02-22 06:35:24,59.78,30.82,broken clouds,37.4,37.99,74,75,17.9,0.0,0.0
415,Sovetskaya Gavan',RU,2020-02-22 06:35:24,48.97,140.29,light snow,18.61,18.61,95,100,5.68,0.0,0.04448818897637795
416,Yelkhovka,RU,2020-02-22 06:35:24,53.87,50.28,mist,15.8,15.8,92,100,2.37,0.0,0.0
417,Aranos,,2020-02-22 06:35:25,-24.13,19.12,light rain,69.96,69.96,78,100,14.45,0.06653543307086614,0.0
418,Departamento de Maldonado,UY,2020-02-22 06:35:25,-34.67,-54.92,scattered clouds,60.8,60.8,63,40,17.22,0.0,0.0
419,Zeya,RU,2020-02-22 06:35:25,53.75,127.27,overcast clouds,6.3,6.3,87,100,5.37,0.0,0.0
420,Vinh,VN,2020-02-22 06:32:30,18.67,105.67,light rain,70.29,70.29,84,87,7.2,0.05669291338582678,0.0
421,Mackay,AU,2020-02-22 06:30:52,-21.15,149.2,broken clouds,78.01,86.0,74,75,12.75,0.0,0.0
422,Beisfjord,NO,2020-02-22 06:35:25,68.38,17.6,overcast clouds,33.01,35.6,81,90,40.26,0.0,0.0
423,Santa Maria,BR,2020-02-22 06:35:26,-29.68,-53.81,clear sky,49.91,49.91,78,0,3.11,0.0,0.0
424,Wladyslawowo,PL,2020-02-22 06:35:26,54.79,18.4,broken clouds,39.0,42.01,80,75,14.99,0.0,0.0
425,Jining,CN,2020-02-22 06:35:26,35.41,116.58,clear sky,51.49,51.49,14,0,5.5,0.0,0.0
426,Singaraja,ID,2020-02-22 06:31:06,-8.11,115.09,scattered clouds,83.35,83.35,71,27,5.39,0.0,0.0
427,Celestun,MX,2020-02-22 06:35:26,20.87,-90.4,light rain,74.43,74.43,80,55,23.87,0.01220472440944882,0.0
428,Thanh Hoa,VN,2020-02-22 06:35:26,19.8,105.77,light rain,73.35,73.35,70,42,12.21,0.014960629921259844,0.0
429,Marshalltown,US,2020-02-22 06:35:27,42.05,-92.91,clear sky,28.4,32.0,68,1,11.41,0.0,0.0
430,Kloulklubed,PW,2020-02-22 06:35:27,7.04,134.26,broken clouds,86.0,86.0,66,75,13.87,0.0,0.0
431,Vestmannaeyjar,IS,2020-02-22 06:35:27,63.44,-20.27,overcast clouds,34.09,34.09,71,100,24.4,0.0,0.0
432,Ibatiba,BR,2020-02-22 06:35:27,-20.23,-41.51,light rain,67.71,67.71,95,81,0.81,0.03464566929133858,0.0
433,Marion,US,2020-02-22 06:35:03,39.77,-86.16,clear sky,24.01,28.4,49,1,5.82,0.0,0.0
434,Novyy Urengoy,RU,2020-02-22 06:35:28,66.08,76.63,clear sky,4.26,4.26,86,0,9.66,0.0,0.0
435,Chara,RU,2020-02-22 06:35:28,56.91,118.26,broken clouds,9.95,9.95,77,79,1.07,0.0,0.0
436,Akhmeta,GE,2020-02-22 06:35:28,42.03,45.21,mist,42.8,42.8,93,90,4.7,0.0,0.0
437,Kunming,CN,2020-02-22 06:35:28,25.04,102.72,scattered clouds,64.0,66.0,48,40,15.66,0.0,0.0
438,Mahon,ES,2020-02-22 06:33:37,39.89,4.27,few clouds,48.2,48.2,93,17,4.7,0.0,0.0
439,Klyuchi,RU,2020-02-22 06:35:28,52.27,79.17,overcast clouds,19.36,19.36,89,100,6.98,0.0,0.0
440,Yei,SS,2020-02-22 06:35:29,4.09,30.68,few clouds,83.12,83.12,40,19,5.91,0.0,0.0
441,Olga,RU,2020-02-22 06:35:29,43.74,135.29,moderate rain,35.46,35.46,98,100,20.0,0.2409448818897638,0.0
442,Drayton Valley,CA,2020-02-22 06:35:29,53.22,-114.99,overcast clouds,27.12,27.12,78,100,5.66,0.0,0.0
443,Mongu,ZM,2020-02-22 06:35:29,-15.25,23.13,broken clouds,71.58,71.58,87,84,4.18,0.0,0.0
444,Makakilo City,US,2020-02-22 06:35:29,21.35,-158.09,few clouds,69.01,75.2,69,20,4.7,0.0,0.0
445,Maloy,NO,2020-02-22 06:35:29,61.94,5.11,light rain,35.6,41.0,80,95,21.92,0.01220472440944882,0.0
446,Mikuni,JP,2020-02-22 06:35:30,36.22,136.15,light intensity shower rain,55.4,55.4,76,75,17.22,0.0,0.0
447,Hastings,GB,2020-02-22 06:32:57,50.86,0.57,overcast clouds,46.99,51.01,87,90,31.09,0.0,0.0
448,Manggar,ID,2020-02-22 06:35:30,-2.88,108.27,light rain,83.61,83.61,73,68,8.95,0.02952755905511812,0.0
449,Chake Chake,TZ,2020-02-22 06:35:30,-5.25,39.77,overcast clouds,84.29,84.29,72,100,9.35,0.0,0.0
450,Rome,US,2020-02-22 06:33:44,43.21,-75.46,clear sky,8.6,26.6,78,1,9.93,0.0,0.0
451,Kaeo,NZ,2020-02-22 06:34:31,-35.1,173.78,light rain,70.0,73.0,100,100,10.0,0.11811023622047245,0.0
452,Puerto Leguizamo,CO,2020-02-22 06:35:31,-0.19,-74.78,broken clouds,75.61,75.61,78,76,0.4,0.0,0.0
453,Mega,ET,2020-02-22 06:35:31,4.05,38.3,scattered clouds,75.54,75.54,46,43,19.46,0.0,0.0
454,Virginia Beach,US,2020-02-22 06:35:06,36.85,-75.98,clear sky,21.0,30.99,73,1,4.7,0.0,0.0
455,Hofn,IS,2020-02-22 06:35:31,64.25,-15.21,overcast clouds,35.38,35.38,95,100,18.3,0.0,0.0
456,Esim,GH,2020-02-22 06:35:31,4.87,-2.24,few clouds,76.91,76.91,94,17,2.71,0.0,0.0
457,San Jeronimo,PE,2020-02-22 06:35:32,-11.95,-75.28,light rain,46.11,46.11,85,100,1.41,0.01732283464566929,0.0
458,Faya,SA,2020-02-22 06:35:32,18.39,42.45,overcast clouds,66.2,66.2,45,99,14.99,0.0,0.0
459,Trelew,AR,2020-02-22 06:34:13,-43.25,-65.31,clear sky,53.76,53.76,50,0,9.62,0.0,0.0
460,Cocobeach,GA,2020-02-22 06:35:32,1.0,9.58,few clouds,78.8,78.8,100,20,4.7,0.0,0.0
461,Hellin,ES,2020-02-22 06:35:32,38.51,-1.7,clear sky,28.4,33.01,100,1,1.48,0.0,0.0
462,Salinopolis,BR,2020-02-22 06:30:35,-0.61,-47.36,light rain,79.34,79.34,80,99,1.86,0.07362204724409449,0.0
463,Tias,ES,2020-02-22 06:35:33,28.96,-13.64,clear sky,62.6,66.2,59,0,11.41,0.0,0.0
464,Bonthe,SL,2020-02-22 06:35:33,7.53,-12.51,overcast clouds,78.13,78.13,92,95,4.94,0.0,0.0
465,Mnogovershinnyy,RU,2020-02-22 06:35:33,53.94,139.92,clear sky,11.89,11.89,86,0,0.94,0.0,0.0
466,Tulsipur,NP,2020-02-22 06:35:33,28.13,82.3,clear sky,74.05,74.05,34,0,7.11,0.0,0.0
467,Katihar,IN,2020-02-22 06:35:33,25.53,87.58,overcast clouds,79.65,79.65,34,98,4.83,0.0,0.0
468,Yerofey Pavlovich,RU,2020-02-22 06:35:33,53.97,121.97,overcast clouds,12.58,12.58,87,88,4.18,0.0,0.0
469,Finspang,SE,2020-02-22 06:35:34,58.71,15.77,overcast clouds,44.01,46.4,75,100,16.11,0.0,0.0
470,Alekseyevka,RU,2020-02-22 06:35:34,50.63,38.69,overcast clouds,30.96,30.96,91,97,6.2,0.0,0.0
471,Pandaria,IN,2020-02-22 06:35:34,22.23,81.42,clear sky,86.67,86.67,26,0,7.76,0.0,0.0
472,Newcastle,AU,2020-02-22 06:32:17,-32.93,151.78,broken clouds,72.0,75.99,78,75,16.11,0.0,0.0
473,Caravelas,BR,2020-02-22 06:35:34,-17.71,-39.25,broken clouds,81.01,81.01,84,66,17.54,0.0,0.0
474,Tarakan,ID,2020-02-22 06:35:34,3.3,117.63,scattered clouds,83.64,83.64,67,27,10.6,0.0,0.0
475,General Roca,AR,2020-02-22 06:35:35,-39.03,-67.58,clear sky,59.0,59.0,51,0,4.7,0.0,0.0
476,La Rioja,ES,2020-02-22 06:35:35,42.25,-2.5,clear sky,37.4,37.4,86,0,2.24,0.0,0.0
477,Kota Tinggi,MY,2020-02-22 06:35:35,1.74,103.9,few clouds,84.0,87.01,74,20,13.87,0.0,0.0
478,Vao,NC,2020-02-22 06:35:35,-22.67,167.48,clear sky,79.45,79.45,72,0,15.28,0.0,0.0
479,Villa Carlos Paz,AR,2020-02-22 06:34:24,-31.42,-64.5,few clouds,53.6,60.01,87,20,4.7,0.0,0.0
480,Hurghada,EG,2020-02-22 06:35:35,27.26,33.81,clear sky,55.4,55.4,47,0,4.7,0.0,0.0
481,Havelock,US,2020-02-22 06:33:05,34.88,-76.9,clear sky,23.0,32.0,85,1,11.41,0.0,0.0
482,Ondangwa,,2020-02-22 06:35:36,-17.92,15.95,scattered clouds,78.8,78.8,78,40,1.12,0.0,0.0
483,Verkhnyaya Inta,RU,2020-02-22 06:35:36,65.98,60.31,overcast clouds,19.42,19.42,81,87,11.41,0.0,0.0
484,Kualakapuas,ID,2020-02-22 06:35:36,-3.01,114.39,overcast clouds,93.34,93.34,46,100,2.46,0.0,0.0
485,Raudeberg,NO,2020-02-22 06:35:36,61.99,5.14,light rain,35.6,41.0,80,95,21.92,0.01220472440944882,0.0
486,Plyussa,RU,2020-02-22 06:35:37,58.43,29.37,broken clouds,33.64,33.64,87,74,13.51,0.0,0.0
487,Yumen,CN,2020-02-22 06:35:37,40.28,97.2,overcast clouds,46.72,46.72,17,95,17.38,0.0,0.0
488,Antofagasta,CL,2020-02-22 06:34:17,-23.65,-70.4,few clouds,66.2,66.2,82,23,4.7,0.0,0.0
489,Arrondissement de Dole,FR,2020-02-22 06:35:37,47.08,5.5,scattered clouds,25.0,28.99,92,26,3.36,0.0,0.0
490,Abalak,RU,2020-02-22 06:35:37,58.13,68.59,overcast clouds,21.61,21.61,93,87,5.28,0.0,0.0
491,Avera,US,2020-02-22 06:35:37,33.19,-82.53,clear sky,25.0,33.8,65,1,4.34,0.0,0.0
492,Zafarwal,PK,2020-02-22 06:35:38,32.35,74.9,smoke,68.0,68.0,56,20,6.93,0.0,0.0
493,Yar-Sale,RU,2020-02-22 06:35:38,66.83,70.83,broken clouds,8.8,8.8,79,58,16.96,0.0,0.0
494,Diamantino,BR,2020-02-22 06:34:25,-14.41,-56.45,light rain,72.21,72.21,97,100,5.23,0.115748031496063,0.0
495,Vila Velha,BR,2020-02-22 06:35:38,-20.33,-40.29,broken clouds,73.0,73.4,94,75,4.7,0.0,0.0
496,Ballina,AU,2020-02-22 06:35:38,-28.87,153.57,overcast clouds,75.0,77.0,65,100,11.41,0.0,0.0
497,Basoko,CD,2020-02-22 06:35:38,1.24,23.62,overcast clouds,77.67,77.67,67,98,1.14,0.0,0.0
498,Guane,CU,2020-02-22 06:35:39,22.2,-84.09,scattered clouds,69.4,69.4,77,34,17.29,0.0,0.0
499,Port Hardy,CA,2020-02-22 06:35:39,50.7,-127.42,light rain,39.2,39.2,100,90,3.36,0.0,0.0
500,Yangi Marg`ilon,UZ,2020-02-22 06:35:39,40.43,71.72,broken clouds,50.0,50.0,66,56,6.93,0.0,0.0
501,Oskarshamn,SE,2020-02-22 06:35:39,57.26,16.45,light rain,42.8,44.01,93,100,17.22,0.02716535433070866,0.0
502,Andenes,NO,2020-02-22 06:35:39,69.31,16.12,light rain,35.01,37.4,85,100,23.04,0.0,0.0
503,Chabahar,IR,2020-02-22 06:31:44,25.29,60.64,few clouds,74.12,74.12,49,17,8.05,0.0,0.0
504,Ponta Delgada,PT,2020-02-22 06:35:40,37.73,-25.67,few clouds,50.0,50.0,81,20,5.82,0.0,0.0
505,Arrondissement du Havre,FR,2020-02-22 06:35:40,49.58,0.33,broken clouds,37.4,44.6,81,61,12.75,0.0,0.0
506,Pacifica,US,2020-02-22 06:35:40,37.61,-122.49,broken clouds,51.01,61.0,44,75,5.82,0.0,0.0
507,Balkhash,KZ,2020-02-22 06:35:40,46.84,74.98,few clouds,30.2,30.2,80,20,6.71,0.0,0.0
508,Los Llanos de Aridane,ES,2020-02-22 06:35:40,28.66,-17.92,light rain,60.8,60.8,67,90,5.82,0.0,0.0
509,Srednekolymsk,RU,2020-02-22 06:34:43,67.45,153.68,broken clouds,-21.41,-21.41,100,82,1.36,0.0,0.0
510,Invermere,CA,2020-02-22 06:35:41,50.52,-116.04,clear sky,19.99,19.99,82,3,2.42,0.0,0.0
511,Jinka,ET,2020-02-22 06:35:41,5.65,36.65,overcast clouds,84.61,84.61,39,88,9.75,0.0,0.0
512,Rondonopolis,BR,2020-02-22 06:35:41,-16.47,-54.64,moderate rain,71.85,71.85,99,100,3.53,0.3862204724409449,0.0
513,Moron,AR,2020-02-22 06:35:41,-34.65,-58.62,clear sky,50.0,59.0,87,0,2.24,0.0,0.0
514,Manokwari,ID,2020-02-22 06:35:41,-0.87,134.08,light rain,80.11,80.11,76,100,7.16,0.05669291338582678,0.0
515,Narsingi,IN,2020-02-22 06:35:42,18.03,78.43,clear sky,84.2,84.99,39,0,9.17,0.0,0.0
516,Quesnel,CA,2020-02-22 06:32:44,53.0,-122.5,overcast clouds,41.0,41.0,48,90,9.17,0.0,0.0
517,Abu Samrah,SY,2020-02-22 06:35:42,35.3,37.18,scattered clouds,50.27,50.27,71,26,5.06,0.0,0.0
518,Rocha,UY,2020-02-22 06:35:42,-34.48,-54.33,broken clouds,55.63,55.63,75,72,7.31,0.0,0.0
519,Siemiatycze,PL,2020-02-22 06:35:42,52.43,22.86,scattered clouds,30.0,30.0,87,27,3.0,0.0,0.0
520,Palatka,US,2020-02-22 06:32:56,29.65,-81.64,overcast clouds,33.01,52.0,74,90,10.29,0.0,0.0
521,Sidi Ali,DZ,2020-02-22 06:35:43,36.1,0.42,few clouds,46.42,46.42,95,11,0.56,0.0,0.0
522,Baruun-Urt,MN,2020-02-22 06:35:43,46.68,113.28,clear sky,14.95,14.95,77,0,13.8,0.0,0.0
523,Abu Kamal,SY,2020-02-22 06:35:43,34.45,40.92,light rain,55.87,55.87,67,96,5.44,0.041732283464566935,0.0
524,Izumo,JP,2020-02-22 06:35:43,35.37,132.77,scattered clouds,53.6,53.6,40,40,20.8,0.0,0.0
525,Berlevag,NO,2020-02-22 06:35:43,70.86,29.09,overcast clouds,34.47,34.47,79,100,39.46,0.0,0.0
526,Asau,RO,2020-02-22 06:35:43,46.43,26.4,broken clouds,32.0,37.0,76,75,2.24,0.0,0.0
527,Sinnamary,GF,2020-02-22 06:35:44,5.38,-52.95,light rain,79.07,79.07,87,62,13.56,0.01968503937007874,0.0
528,Tezu,IN,2020-02-22 06:35:44,27.92,96.17,overcast clouds,80.17,80.17,28,100,4.16,0.0,0.0
529,Khorramshahr,IR,2020-02-22 06:35:44,30.44,48.17,haze,64.4,66.2,68,0,2.24,0.0,0.0
530,Kampot,KH,2020-02-22 06:35:44,10.62,104.18,clear sky,89.6,93.2,40,0,16.11,0.0,0.0
531,Kitale,KE,2020-02-22 06:35:44,1.02,35.01,broken clouds,70.57,70.57,57,62,3.69,0.0,0.0
532,Sitka,US,2020-02-22 06:35:44,57.05,-135.33,light snow,33.8,33.8,86,90,9.17,0.0,0.0
533,Half Moon Bay,US,2020-02-22 06:35:45,37.46,-122.43,broken clouds,52.0,61.0,44,75,5.82,0.0,0.0
534,Vila do Maio,CV,2020-02-22 06:35:45,15.13,-23.22,few clouds,68.0,68.0,72,20,19.46,0.0,0.0
535,Aksu,CN,2020-02-22 06:35:45,41.12,80.26,clear sky,43.57,43.57,26,2,2.62,0.0,0.0
536,Maracaibo,VE,2020-02-22 06:35:45,10.63,-71.64,scattered clouds,78.17,78.17,76,25,14.18,0.0,0.0
537,Majene,ID,2020-02-22 06:35:45,-3.54,118.97,moderate rain,81.66,81.66,84,97,2.57,0.12322834645669292,0.0
538,Impfondo,CG,2020-02-22 06:35:46,1.64,18.07,overcast clouds,77.95,77.95,71,99,1.41,0.0,0.0
539,Coyhaique,CL,2020-02-22 06:35:46,-45.58,-72.07,clear sky,46.4,46.4,70,0,2.15,0.0,0.0
540,Burnie,AU,2020-02-22 06:31:02,-41.07,145.92,clear sky,64.99,66.99,57,7,10.0,0.0,0.0
541,Turbat,PK,2020-02-22 06:31:33,26.0,63.04,clear sky,78.35,78.35,20,0,4.45,0.0,0.0
542,Ewo,CG,2020-02-22 06:35:46,-0.87,14.82,light rain,74.97,74.97,86,100,3.98,0.041732283464566935,0.0
543,Alenquer,BR,2020-02-22 06:35:46,-1.94,-54.74,scattered clouds,75.2,75.2,100,40,4.7,0.0,0.0
544,Okhotsk,RU,2020-02-22 06:35:47,59.38,143.3,overcast clouds,-4.58,-4.58,78,100,0.65,0.0,0.0
545,Rosetown,CA,2020-02-22 06:35:47,51.55,-108.0,clear sky,23.0,23.0,79,3,7.05,0.0,0.0
546,Tual,ID,2020-02-22 06:35:47,-5.67,132.75,light rain,82.18,82.18,79,95,18.92,0.05433070866141732,0.0
547,Naze,JP,2020-02-22 06:35:47,28.37,129.48,light rain,62.6,66.2,88,75,9.17,0.0,0.0
548,Lhokseumawe,ID,2020-02-22 06:35:47,5.18,97.15,few clouds,85.64,85.64,54,14,8.05,0.0,0.0
549,Changji,CN,2020-02-22 06:35:47,44.02,87.32,broken clouds,26.6,26.6,68,54,2.24,0.0,0.0
550,Vila Franca do Campo,PT,2020-02-22 06:35:48,37.72,-25.43,few clouds,50.0,50.0,81,20,5.82,0.0,0.0
551,San Diego de la Union,MX,2020-02-22 06:35:48,21.47,-100.87,scattered clouds,45.0,46.99,83,47,8.99,0.0,0.0
552,Alice,US,2020-02-22 06:32:27,27.75,-98.07,clear sky,39.99,46.99,75,1,4.7,0.0,0.0
553,Chapais,CA,2020-02-22 06:35:48,49.78,-74.85,light snow,26.6,26.6,68,90,12.75,0.0,0.0
554,Cabedelo,BR,2020-02-22 06:35:48,-6.98,-34.83,scattered clouds,78.8,78.8,94,40,2.24,0.0,0.0
555,Jambusar,IN,2020-02-22 06:35:48,22.05,72.8,clear sky,77.0,77.0,38,0,9.17,0.0,0.0
556,Tuy Hoa,VN,2020-02-22 06:31:33,13.08,109.3,light rain,75.56,75.56,77,53,22.28,0.022047244094488192,0.0
557,Kalmunai,LK,2020-02-22 06:35:49,7.42,81.82,light rain,82.17,82.17,78,86,19.01,0.01220472440944882,0.0
558,Dunedin,NZ,2020-02-22 06:33:35,-45.87,170.5,overcast clouds,55.0,55.99,67,91,1.01,0.0,0.0
559,Kandi,BJ,2020-02-22 06:35:49,11.13,2.94,few clouds,70.74,70.74,18,16,5.23,0.0,0.0
560,Broken Hill,AU,2020-02-22 06:31:03,-31.95,141.43,clear sky,84.2,84.2,18,0,18.34,0.0,0.0
